<?xml version="1.0" encoding="UTF-8"?>
<powerspot>
    <spot>
        <no>1</no>
        <name>恋人岬のラブコールベル</name>
        <comment>愛の鐘、通称「ラブコールベル」には恋人宣言ルールがある。まず1回目は自分の身を清め、2回目は相手の心を呼び、3回目は二人で愛を誓う。恋のおまじないなので慌てずゆっくりやってみよう。</comment>
        <adress>伊豆市小下田3135-7</adress>
        <lat>34.867626</lat>
        <lng>138.761638</lng>
        <category1>0</category1>
        <category2>6</category2>
        <category3>6</category3>
    </spot>
    <spot>
        <no>2</no>
        <name>子宝の杉</name>
        <comment>修善寺日枝神社にある樹齢800年の「子宝の杉」があり、二本の杉の間を通ると子宝に恵まれる。</comment>
        <adress>伊豆市修善寺820</adress>
        <lat>34.971466</lat>
        <lng>138.928614</lng>
        <category1>1</category1>
        <category2>6</category2>
        <category3>6</category3>
    </spot>
    <spot>
        <no>3</no>
        <name>仏顔石</name>
        <comment>まるでキリストのような横顔が浮かび上がっていて、これを見れば「願いが叶う」といわれている。</comment>
        <adress>伊豆市牧之郷</adress>
        <lat>34.995054</lat>
        <lng>138.959605</lng>
        <category1>5</category1>
        <category2>6</category2>
        <category3>6</category3>
    </spot>
    <spot>
        <no>4</no>
        <name>恋の橋めぐり</name>
        <comment>源頼家とかつらが愛を育んだと言われる修善寺物語の舞台となった桂川にかかる５つの橋。これらの橋を渡り、修善寺にお参りすれば、「恋が成就する」といわれている。</comment>
        <adress>伊豆市修善寺964（修禅寺）付近</adress>
        <lat>34.97074</lat>
        <lng>138.927877</lng>
        <category1>0</category1>
        <category2>6</category2>
        <category3>6</category3>
    </spot>
    <spot>
        <no>5</no>
        <name>ラフォーレ修善寺　富士・天城ビューポイント</name>
        <comment>富士山、箱根、天城連山を望む絶好のロケーション。伊豆の大自然が満喫できるリゾートでデートにもぴったり。</comment>
        <adress>伊豆市大平1529</adress>
        <lat>34.956356</lat>
        <lng>138.914829</lng>
        <category1>4</category1>
        <category2>6</category2>
        <category3>6</category3>
    </spot>
    <spot>
        <no>6</no>
        <name>This IZU LOVEバーガー</name>
        <comment>ハート型のバンズのハンバーガーを食べれば「恋愛が成就する」という噂がある。伊豆市内の複数のお店で食べることができる。</comment>
        <adress>伊豆市小下田242-1</adress>
        <lat>34.866901</lat>
        <lng>138.76025</lng>
        <category1>0</category1>
        <category2>6</category2>
        <category3>6</category3>
    </spot>
    <spot>
        <no>7</no>
        <name>ハート型の花畑</name>
        <comment>カップルで見れば「幸せになれる」と口コミが広がっている、恋人岬ステラハウスの横にある「ハート型の花畑」</comment>
        <adress>伊豆市小下田3135-7</adress>
        <lat>34.867626</lat>
        <lng>138.761638</lng>
        <category1>4</category1>
        <category2>6</category2>
        <category3>6</category3>
    </spot>
    <spot>
        <no>8</no>
        <name>吉奈温泉</name>
        <comment>奈良時代からの湯治湯として栄え、家康の愛妻のお万の方が子宝に恵まれたことでその名が知られている。</comment>
        <adress>伊豆市吉奈</adress>
        <lat>34.905813</lat>
        <lng>138.912862</lng>
        <category1>1</category1>
        <category2>6</category2>
        <category3>6</category3>
    </spot>
    <spot>
        <no>9</no>
        <name>出会い橋</name>
        <comment>「出会い橋」で出会った男女は結ばれるといううわさ。実際に、「一緒に渡ったひとと結婚しました」という口コミも。</comment>
        <adress>伊豆市湯ヶ島</adress>
        <lat>34.888256</lat>
        <lng>138.927947</lng>
        <category1>0</category1>
        <category2>6</category2>
        <category3>6</category3>
    </spot>
    <spot>
        <no>10</no>
        <name>牧之郷の子育て日切地蔵</name>
        <comment>地蔵を一体借りて自宅に祀り、「子宝に恵まれたとき」は新しい地蔵を一体奉納しお礼をする慣わしがある。</comment>
        <adress>伊豆市牧之郷</adress>
        <lat>34.993415</lat>
        <lng>138.951471</lng>
        <category1>1</category1>
        <category2>6</category2>
        <category3>6</category3>
    </spot>
    <spot>
        <no>11</no>
        <name>三四郎島と瀬浜海岸</name>
        <comment>3月から9月頃の干潮時に、石州が現れて、陸と島が繋がる珍しい光景「トンボロ」。歩いて渡る時は、大きな石が多く海草などが付着して滑りやすいので、恋人達は自然に手をつなぎ合って歩いているそう。
        </comment>
        <adress>賀茂郡西伊豆町仁科</adress>
        <lat>34.779831</lat>
        <lng>138.768311</lng>
        <category1>4</category1>
        <category2>6</category2>
        <category3>6</category3>
    </spot>
    <spot>
        <no>12</no>
        <name>弁天島</name>
        <comment>弁天島の周囲をカップルで一周すれば「幸せになれる」といわれている。ただし、裏側から回ることが大切！海岸側から一周すると逆に別れてしまうという話も…。</comment>
        <adress>賀茂郡松崎町江奈742</adress>
        <lat>34.769899</lat>
        <lng>138.771035</lng>
        <category1>0</category1>
        <category2>6</category2>
        <category3>6</category3>
    </spot>
    <spot>
        <no>13</no>
        <name>はさみ石</name>
        <comment>夫婦仲良く子どもを抱いた姿に見える。拝めば「夫婦円満」「家内安全」と言われている。</comment>
        <adress>賀茂郡東伊豆町稲取</adress>
        <lat>34.772922</lat>
        <lng>139.043312</lng>
        <category1>2</category1>
        <category2>5</category2>
        <category3>6</category3>
    </spot>
    <spot>
        <no>14</no>
        <name>子宝の湯（大滝温泉天城荘）</name>
        <comment>伊豆最大級の大滝（おおだる）と秘境天城の大自然に同化する天城荘。母胎内を感じる薄明かりの子宝の湯は100％源泉掛け流し、奥には子孫繁栄のありがたい像がある。</comment>
        <adress>賀茂郡河津町梨本359</adress>
        <lat>34.793232</lat>
        <lng>138.936817</lng>
        <category1>1</category1>
        <category2>6</category2>
        <category3>6</category3>
    </spot>
    <spot>
        <no>15</no>
        <name>峰温泉大噴湯公園</name>
        <comment>東洋一を誇る峰温泉の大噴湯。11月22日（良い夫婦の日）に誕生したこの大噴湯はまさにパワースポットにふさわしい場所！</comment>
        <adress>賀茂郡河津町峰446-1</adress>
        <lat>34.757313</lat>
        <lng>138.982477</lng>
        <category1>2</category1>
        <category2>6</category2>
        <category3>6</category3>
    </spot>
    <spot>
        <no>16</no>
        <name>子守神社</name>
        <comment>大巳貴命（オオナムチノミコト）が御祭神として祀られ、安産・子宝の神、縁結びの神としてこの地の人々から信仰されている。</comment>
        <adress>賀茂郡東伊豆町稲取</adress>
        <lat>34.780466</lat>
        <lng>138.923602</lng>
        <category1>1</category1>
        <category2>3</category2>
        <category3>6</category3>
    </spot>
    <spot>
        <no>17</no>
        <name>ハ百比丘尼の石像</name>
        <comment>若さを保ち八百歳まで生き、その美しさに求婚者が後をたたなかったとされる「ハ百比丘尼」の伝説にあやかり、拝めば「良縁に恵まれる」。</comment>
        <adress>賀茂郡東伊豆町稲取</adress>
        <lat>34.772728</lat>
        <lng>139.041874</lng>
        <category1>3</category1>
        <category2>6</category2>
        <category3>6</category3>
    </spot>
    <spot>
        <no>18</no>
        <name>稲取岬</name>
        <comment>歌手　鳥羽一郎のヒット曲「愛恋岬」の歌碑があり、岬の上からは伊豆七島が一望できることから、地元ではこのあたり一帯が「男女の縁を呼ぶ」観光スポットとなっている。</comment>
        <adress>賀茂郡東伊豆町稲取1089-45</adress>
        <lat>34.768444</lat>
        <lng>139.047116</lng>
        <category1>3</category1>
        <category2>4</category2>
        <category3>6</category3>
    </spot>
    <spot>
        <no>19</no>
        <name>熱川温泉のお湯かけ弁財天</name>
        <comment>願いが叶うとされる弁財天。お金を洗うと「財産が増える」という「銭洗いの池」もある。またお堂の前には「恋愛が成就」するというナギの木が。熱川温泉散策のパワースポット。</comment>
        <adress>賀茂郡東伊豆町奈良本</adress>
        <lat>34.820878</lat>
        <lng>139.068341</lng>
        <category1>5</category1>
        <category2>0</category2>
        <category3>6</category3>
    </spot>
    <spot>
        <no>20</no>
        <name>はりつけの松</name>
        <comment>悲恋物語の舞台。この松の下に落ちているまつぼっくりを持って帰ると、「恋の成就」、「夫婦円満」のご利益があると言われている。</comment>
        <adress>賀茂郡東伊豆町片瀬海岸</adress>
        <lat>34.4812</lat>
        <lng>139.035</lng>
        <category1>0</category1>
        <category2>2</category2>
        <category3>6</category3>
    </spot>
    <spot>
        <no>21</no>
        <name>どんつく神社のどんつく祭</name>
        <comment>二千年の歴史をもつ稲取岬の高台にある「どんつく神社」のお祭り。町の人や観光客が「子孫繁栄」、「夫婦和合」、「無病息災」の願いをこめ神輿を担いで町を練り歩く！</comment>
        <adress>賀茂郡東伊豆町稲取1089-45付近（どんつく神社）</adress>
        <lat>34.768597</lat>
        <lng>139.047444</lng>
        <category1>2</category1>
        <category2>1</category2>
        <category3>5</category3>
    </spot>
    <spot>
        <no>22</no>
        <name>縄地の子安神社</name>
        <comment>子安さまに参拝し、神殿に捧げた残りのロウソクを頂いて帰る。産気づくとそれを灯し、ロウソクが燃えつきないうちに無事出産するといわれる。</comment>
        <adress>賀茂郡河津町縄地1付近</adress>
        <lat>34.722369</lat>
        <lng>138.98353</lng>
        <category1>1</category1>
        <category2>6</category2>
        <category3>6</category3>
    </spot>
    <spot>
        <no>23</no>
        <name>河津桜原木</name>
        <comment>原木（「元気」げんき）とも呼ばれ、まさにパワースポット。河津桜が咲いている時期に原木を訪れると恋愛が叶うといわれている。</comment>
        <adress>賀茂郡河津町田中</adress>
        <lat>34.757621</lat>
        <lng>138.988335</lng>
        <category1>0</category1>
        <category2>6</category2>
        <category3>6</category3>
    </spot>
    <spot>
        <no>24</no>
        <name>河津バガテル公園</name>
        <comment>バラの香りのアロマ効果に癒され、恋人達の心の距離も縮まり穏やかになる。バラに囲まれ「人前式」を希望するカップルもいるそう。</comment>
        <adress>賀茂郡河津町峰1073</adress>
        <lat>34.75661</lat>
        <lng>138.98371</lng>
        <category1>0</category1>
        <category2>6</category2>
        <category3>6</category3>
    </spot>
    <spot>
        <no>25</no>
        <name>皿投げ見晴らし台</name>
        <comment>自然の土で作られた皿を「ハート型」の的に向かって投げて当たれば「恋愛運」がアップするとのウワサ。（皿投げ　5枚300円）</comment>
        <adress>賀茂郡南伊豆町伊浜1878</adress>
        <lat>34.687838</lat>
        <lng>138.772576</lng>
        <category1>0</category1>
        <category2>6</category2>
        <category3>6</category3>
    </spot>
    <spot>
        <no>26</no>
        <name>堀之内の子育て地蔵</name>
        <comment>安産を祈願するお地蔵さま。近所の人がお参りをしたところ、赤ちゃんが誕生したそう。</comment>
        <adress>下田市堀之内57</adress>
        <lat>34.720918</lat>
        <lng>138.938314</lng>
        <category1>1</category1>
        <category2>6</category2>
        <category3>6</category3>
    </spot>
    <spot>
        <no>27</no>
        <name>東子浦のお地蔵様</name>
        <comment>夫婦になりたいカップルの想いを助けると伝えられている縁結びのお地蔵様。</comment>
        <adress>賀茂郡南伊豆町子浦　東子浦地区</adress>
        <lat>34.6717162</lat>
        <lng>138.7883484</lng>
        <category1>0</category1>
        <category2>6</category2>
        <category3>6</category3>
    </spot>
    <spot>
        <no>28</no>
        <name>白浜神社</name>
        <comment>三嶋大明神の随神である見目が弁財天として祀られ、縁結び・子授け・夫婦円満のご利益があると伝わる。</comment>
        <adress>下田市白浜2740</adress>
        <lat>34.693644</lat>
        <lng>138.973017</lng>
        <category1>1</category1>
        <category2>3</category2>
        <category3>2</category3>
    </spot>
    <spot>
        <no>29</no>
        <name>七夕神社の「なぎ」の木</name>
        <comment>男性が雌梛の葉を、女性が雄梛の葉を抱いていると両想いになる。七夕神社の「なぎ」の木の葉も恋愛成就のお守りとして伝えられている。</comment>
        <adress>賀茂郡南伊豆町青市878</adress>
        <lat>34.666305</lat>
        <lng>138.894517</lng>
        <category1>0</category1>
        <category2>6</category2>
        <category3>6</category3>
    </spot>
    <spot>
        <no>30</no>
        <name>あいあい岬の愛の鐘</name>
        <comment>カップルでこの景色をのんびり眺めて鐘をならせば、永遠の愛が叶うそう。</comment>
        <adress>賀茂郡南伊豆町入間1839-1</adress>
        <lat>34.609452</lat>
        <lng>138.826704</lng>
        <category1>4</category1>
        <category2>6</category2>
        <category3>6</category3>
    </spot>
    <spot>
        <no>31</no>
        <name>寝姿山愛染堂の絵馬</name>
        <comment>絵馬を結ぶ台にはたくさんのハート型の絵馬でいっぱい！寝姿山は縁結びで有名な大人気の恋愛祈願＆デートスポット。「恋愛成就のハート型絵馬」500円。</comment>
        <adress>下田市東本郷1-3-2</adress>
        <lat>34.678856</lat>
        <lng>138.946122</lng>
        <category1>0</category1>
        <category2>4</category2>
        <category3>6</category3>
    </spot>
    <spot>
        <no>32</no>
        <name>竜宮窟</name>
        <comment>上から覗き込むとハートの形に見える海食洞（かいしょくどう）の天井にエメラルドグリーンの海。</comment>
        <adress>下田市田牛</adress>
        <lat>34.3832</lat>
        <lng>138.5455</lng>
        <category1>4</category1>
        <category2>6</category2>
        <category3>6</category3>
    </spot>
    <spot>
        <no>33</no>
        <name>熊野神社</name>
        <comment>お静と幸吉との恋話に由来する神社。幸せになった二人の伝説を聞きつけ、「恋愛成就」の絵馬をかけてゆくカップルが後を絶たない断・崖・絶・壁にある神社。</comment>
        <adress>賀茂郡南伊豆町石廊崎</adress>
        <lat>34.856602</lat>
        <lng>138.310563</lng>
        <category1>0</category1>
        <category2>6</category2>
        <category3>6</category3>
    </spot>
    <spot>
        <no>34</no>
        <name>夫婦クス（三島神社）</name>
        <comment>隣り合わせた楠木の幹がしっかり結合しており夫婦を象徴するかのような様子から「夫婦円満」に御利益があるパワースポットと言われている。</comment>
        <adress>賀茂郡南伊豆町加納933-1</adress>
        <lat>34.655355</lat>
        <lng>138.856196</lng>
        <category1>2</category1>
        <category2>6</category2>
        <category3>6</category3>
    </spot>
    <spot>
        <no>35</no>
        <name>下賀茂温泉　湯道福地蔵めぐり</name>
        <comment>
            南伊豆の新名所「福地蔵めぐり」。情緒たっぷりの温泉地「湯の道」の各ポイントに御影石で造られた愛嬌のあるかわいらしいお地蔵様6体と白坂地蔵を加えた7体が安置されている。それぞれにご利益が違うのでぜひ全部巡って散策してみよ～。
        </comment>
        <adress>賀茂郡南伊豆町下賀茂８４２</adress>
        <lat>34.651991</lat>
        <lng>138.858776</lng>
        <category1>4</category1>
        <category2>5</category2>
        <category3>6</category3>
    </spot>
    <spot>
        <no>36</no>
        <name>ハートせんべい</name>
        <comment>伊豆中央道いちごプラザ内の手焼き堂で販売されている「ハートせんべい」を食べれば「恋愛運がアップする」という話が口コミで広がっている。</comment>
        <adress>伊豆の国市南江間1788-2</adress>
        <lat>35.05016</lat>
        <lng>138.922402</lng>
        <category1>0</category1>
        <category2>6</category2>
        <category3>6</category3>
    </spot>
    <spot>
        <no>37</no>
        <name>音無神社</name>
        <comment>
            源頼朝の青年時代の「ロマンスの場所」である音無神社は「安産の神様」とされ、出産前に底の抜けた柄杓を納め安産を祈願し、無事安産に恵まれたときは、出産後に御礼としてもう一つ底の抜けた柄杓を納める風習がよく知られている。
        </comment>
        <adress>伊東市音無町1-12</adress>
        <lat>34.966959</lat>
        <lng>139.095817</lng>
        <category1>1</category1>
        <category2>6</category2>
        <category3>6</category3>
    </spot>
    <spot>
        <no>38</no>
        <name>澤田政廣記念美術館「飛天」</name>
        <comment>エントランスにある、ステンドグラス飛天の下で手をつないだカップルは、天空を舞う天女たちに祝福され幸せになると言われている。</comment>
        <adress>熱海市梅園町9-46</adress>
        <lat>35.098834</lat>
        <lng>139.057842</lng>
        <category1>0</category1>
        <category2>6</category2>
        <category3>6</category3>
    </spot>
    <spot>
        <no>39</no>
        <name>来宮神社の大楠</name>
        <comment>心願成就と健康長寿のパワースポットである来宮神社の大楠。大楠の周りを一回廻れば寿命が一年延び、願い事のある人は、その願いを心に秘めて誰にもしゃべらず一廻りすれば、願い事が成就するとのこと。
        </comment>
        <adress>熱海市西山町43-1</adress>
        <lat>35.100409</lat>
        <lng>139.067819</lng>
        <category1>5</category1>
        <category2>6</category2>
        <category3>6</category3>
    </spot>
    <spot>
        <no>40</no>
        <name>尻つみ祭</name>
        <comment>
            御祭神である豊玉姫命が急に産気づき産殿に入った際、従者たちは灯を消し、息を殺しながら音を立てないよう待っていたのが由来。御神酒を廻すときにお尻を摘み、合図をして杯を廻すとされる。毎年、11月10日の祭典では尻相撲が行われる。
        </comment>
        <adress>伊東市音無町1-12</adress>
        <lat>34.966959</lat>
        <lng>139.095817</lng>
        <category1>4</category1>
        <category2>6</category2>
        <category3>6</category3>
    </spot>
    <spot>
        <no>41</no>
        <name>玄岳</name>
        <comment>この玄岳で相模湾側から上る朝日と駿河湾に沈む夕日を二人で見れば恋が成就すると言われている。</comment>
        <adress>熱海市熱海</adress>
        <lat>35.084623</lat>
        <lng>139.02576</lng>
        <category1>0</category1>
        <category2>6</category2>
        <category3>6</category3>
    </spot>
    <spot>
        <no>42</no>
        <name>湯川第一浴場（子持ちの湯）</name>
        <comment>疲れがとれて体力が回復し、気力もあふれるほど盛んになって子宝に恵まれると言われている。</comment>
        <adress>伊東市湯川1-16-10</adress>
        <lat>34.973775</lat>
        <lng>139.092617</lng>
        <category1>1</category1>
        <category2>6</category2>
        <category3>6</category3>
    </spot>
    <spot>
        <no>43</no>
        <name>大室山</name>
        <comment>火口中腹にある浅間神社には「安産」と「縁結び」の神様が祀られており、神社で祈願すれば、その願いが叶うと言われている。</comment>
        <adress>伊東市富戸1317-5</adress>
        <lat>34.90659</lat>
        <lng>139.096864</lng>
        <category1>1</category1>
        <category2>3</category2>
        <category3>6</category3>
    </spot>
    <spot>
        <no>44</no>
        <name>伊豆大川沿いのモニュメント（川口公園）</name>
        <comment>地元の小学生の作品であるステンドグラスを集めて作られたこのモニュメント。夕暮れに美しく輝くモニュメントを見に多くのカップルが訪れる。</comment>
        <adress>伊東市渚町4</adress>
        <lat>34.971495</lat>
        <lng>139.100036</lng>
        <category1>4</category1>
        <category2>6</category2>
        <category3>6</category3>
    </spot>
    <spot>
        <no>45</no>
        <name>道の駅　伊東マリンタウン</name>
        <comment>
            このハートのモニュメントの前でカップルが記念写真を撮ると「愛のキューピット」の天使が二人を「結婚」へと導いてくれるそう。そして道の駅　伊東マリンタウンに併設されている防波堤を利用した遊歩道「伊東マリンロード」には、願い事をして結ぶと叶うという「幸せのリボン」が。
        </comment>
        <adress>伊東市湯川571-19</adress>
        <lat>34.984643</lat>
        <lng>139.094386</lng>
        <category1>0</category1>
        <category2>6</category2>
        <category3>6</category3>
    </spot>
    <spot>
        <no>46</no>
        <name>熱海サンビーチ・親水公園</name>
        <comment>
            石のモニュメントの上に二人で手を置いて愛を誓えば幸せになると言われているけど、シングルの人も大丈夫。女性は右手、男性は左手を手形の上に置いて、心静かに願ってみよう。「恋人の聖地」できっと素敵な異性にめぐり合えるよ！
        </comment>
        <adress>熱海市渚町親水公園</adress>
        <lat>35.096158</lat>
        <lng>139.077049</lng>
        <category1>0</category1>
        <category2>6</category2>
        <category3>6</category3>
    </spot>
    <spot>
        <no>47</no>
        <name>あいじょう岬展望台</name>
        <comment>
            アタミロープウェイ山頂の展望台にあるモニュメントに、愛と情をかけた2つの愛の鍵と心が離れることがないよう錠（情）前が付いている絵馬をかける。願いが届くよう祈りながら二人で鍵をかければ、愛（合）鍵は、その日から2人の大切な宝物に。また山頂にはカップルでもグループでも楽しめる笑えるオトナのスポット「熱海秘宝館」も！デートでいかが？
        </comment>
        <adress>熱海市和田浜南町8-15</adress>
        <lat>35.086853</lat>
        <lng>139.080203</lng>
        <category1>4</category1>
        <category2>6</category2>
        <category3>6</category3>
    </spot>
    <spot>
        <no>48</no>
        <name>伊豆西海岸の地形</name>
        <comment>遊覧船に乗り、巨石「さねもりさま」（女性のシンボル）とその少し離れた断崖の稜線にそびえ立つ「うりもりさま」（男性のシンボル）を合わせて海から拝めば良縁や子宝のご利益があると言われている。</comment>
        <adress>賀茂郡松崎町～南伊豆町境界付近</adress>
        <lat>34.757974</lat>
        <lng>138.77825</lng>
        <category1>3</category1>
        <category2>1</category2>
        <category3>6</category3>
    </spot>
    <spot>
        <no>49</no>
        <name>石部の棚田</name>
        <comment>東日本では珍しい石積みの棚田。「石部の灯り」というイベントでは、あぜ道にキャンドルを置きライトアップされ、とてもロマンチック。</comment>
        <adress>賀茂郡松崎町石部地区</adress>
        <lat>34.732514</lat>
        <lng>138.755861</lng>
        <category1>4</category1>
        <category2>6</category2>
        <category3>6</category3>
    </spot>
    <spot>
        <no>50</no>
        <name>らんの里堂ヶ島</name>
        <comment>
            西伊豆の豊かな自然に囲まれたランの植物園。温室ではコチョウラン、デンファレ、バンダ、パフィオ、など蘭を常時鑑賞できる。「恋人の聖地」にも選ばれている。広い敷地を散策すればリアス式の海岸線とコバルトブルーの海岸線とコバルトブルーの海が見える。運が良ければ、御前崎から日本平、遠く南アルプスまで一望。伊豆で一番長い吊り橋「ラブコールブリッジ」では愛を叫ぼう。
        </comment>
        <adress>賀茂郡西伊豆町仁科2848-1</adress>
        <lat>34.783142</lat>
        <lng>138.770428</lng>
        <category1>4</category1>
        <category2>6</category2>
        <category3>6</category3>
    </spot>
    <spot>
        <no>51</no>
        <name>松崎海岸</name>
        <comment>波打ち際の砂で、相合い傘の中に二人の名前を書き、波に消されずに残ったら、二人は幸せになれるというおまじないがあるそう。</comment>
        <adress>賀茂郡松崎町松崎</adress>
        <lat>34.752614</lat>
        <lng>138.779966</lng>
        <category1>0</category1>
        <category2>6</category2>
        <category3>6</category3>
    </spot>
    <spot>
        <no>52</no>
        <name>雲見浅間神社</name>
        <comment>石段を登った先の本堂で拝み、富士山を見ることができれば、「子宝に恵まれ」、「末永く幸せになれる」といわれている。御神木の「夫婦松」もご利益あり！</comment>
        <adress>賀茂郡松崎町雲見386-2</adress>
        <lat>34.725044</lat>
        <lng>138.744745</lng>
        <category1>2</category1>
        <category2>1</category2>
        <category3>6</category3>
    </spot>
    <spot>
        <no>53</no>
        <name>メガネッチョの眼が輝く</name>
        <comment>大田子海岸から眺められるゴジラに似た岩（メガネッチョ）に夕陽がかぶり、ゴジラの目が紅く輝きギラリと睨む姿を見ることができれば、「幸せになれる」といううわさ。</comment>
        <adress>賀茂郡西伊豆町田子</adress>
        <lat>34.805065</lat>
        <lng>138.763757</lng>
        <category1>0</category1>
        <category2>6</category2>
        <category3>6</category3>
    </spot>
    <spot>
        <no>54</no>
        <name>告白の堤防</name>
        <comment>主人公が「告白した堤防」が伊豆松崎港にあり、堤防のそばにはモニュメント「愛の鐘」が設置されている。気になる人と訪れれば「カップルが成立する」こともあるそう。</comment>
        <adress>賀茂郡松崎町宮内</adress>
        <lat>34.753359</lat>
        <lng>138.78442</lng>
        <category1>0</category1>
        <category2>6</category2>
        <category3>6</category3>
    </spot>
    <spot>
        <no>55</no>
        <name>瀬崎神社</name>
        <comment>主人公と恋人のデートコースとなった神社。「カップルで参拝すれば幸せになれる」といううわさ。</comment>
        <adress>賀茂郡松崎町松崎</adress>
        <lat>34.755482</lat>
        <lng>138.782707</lng>
        <category1>0</category1>
        <category2>6</category2>
        <category3>6</category3>
    </spot>
    <spot>
        <no>56</no>
        <name>大沢温泉の桜並木</name>
        <comment>3月下旬から4月上旬になると、川べりに樹齢60年余の桜の大木が川面を覆うように咲き誇る。かつて新婚旅行のカップルが春の夢を一句詠んだそう。</comment>
        <adress>賀茂郡松崎町大沢</adress>
        <lat>34.758229</lat>
        <lng>138.825066</lng>
        <category1>4</category1>
        <category2>6</category2>
        <category3>6</category3>
    </spot>
    <spot>
        <no>57</no>
        <name>牛原山のあじさいの丘</name>
        <comment>ドラマ『世界の中心で、愛を叫ぶ』でロケ地として使われたこの場所には、ドラマが好きな方や、そのパワーを貰おうとする方と、若いカップルが多く訪れているそう。</comment>
        <adress>賀茂郡松崎町宮内</adress>
        <lat>34.743975</lat>
        <lng>138.782814</lng>
        <category1>4</category1>
        <category2>0</category2>
        <category3>6</category3>
    </spot>
    <spot>
        <no>58</no>
        <name>雛の館</name>
        <comment>お雛様と雛のつるし飾りが飾られている。「良縁」や「健やかな成長」を願う「つるし飾り」と言われている稲取独自の風習。</comment>
        <adress>賀茂郡東伊豆町稲取</adress>
        <lat>34.771794</lat>
        <lng>139.04193</lng>
        <category1>3</category1>
        <category2>6</category2>
        <category3>6</category3>
    </spot>
    <spot>
        <no>59</no>
        <name>富士山本宮浅間大社</name>
        <comment>富士山の雪解け水、まろやかな霊水がこんこんと湧く池。本殿は重要文化財。由緒ある大社で厳かに挙式を。</comment>
        <adress>富士宮市宮町1-1</adress>
        <lat>35.221914</lat>
        <lng>138.6137056</lng>
        <category1>4</category1>
        <category2>6</category2>
        <category3>6</category3>
    </spot>
    <spot>
        <no>60</no>
        <name>安産子授の寺　西福寺</name>
        <comment>
            石畑遺跡から出土した「子授地蔵」は男根の形をしているため「麻羅地蔵」とも呼ばれ、子宝に恵まれない女性が触ると「子供が授かる」と伝えられている。本尊「子安観音」の安産祈願のご利益とあわせて、多くの信仰を集めている。
        </comment>
        <adress>菊川市吉沢523（曹洞宗　吉澤山　西福寺）</adress>
        <lat>34.772925</lat>
        <lng>138.109419</lng>
        <category1>1</category1>
        <category2>6</category2>
        <category3>6</category3>
    </spot>
    <spot>
        <no>61</no>
        <name>小山城</name>
        <comment>熊満寺山公園内にある3層5階建て、高さ21mの展望台になっている。南アルプス連峰、富士山、桜の時期がロマンチック。</comment>
        <adress>榛原郡吉田町片岡　熊満寺山公園内</adress>
        <lat>34.779461</lat>
        <lng>38.247164</lng>
        <category1>4</category1>
        <category2>6</category2>
        <category3>6</category3>
    </spot>
    <spot>
        <no>62</no>
        <name>落ちない大石</name>
        <comment>落ちそうで落ちない絶妙なバランスで佇む石。縁起をかついで、受験や就職シーズンには手を合わせる学生の姿も。願いが叶うことから子宝祈願する人も！</comment>
        <adress>榛原郡川根本町千頭（寸又峡）地内</adress>
        <lat>35.108797</lat>
        <lng>138.142624</lng>
        <category1>1</category1>
        <category2>6</category2>
        <category3>6</category3>
    </spot>
    <spot>
        <no>63</no>
        <name>寸又峡温泉夢の吊橋</name>
        <comment>橋の真ん中で、女性が恋の成就を祈ると夢や願いが叶うと言われている寸又峡を代表する美しい渓谷に架けられている。デートで渡るスリルを一緒に味わうのもオススメ。</comment>
        <adress>榛原郡川根本町千頭（寸又峡）地内</adress>
        <lat>35.190645</lat>
        <lng>138.184662</lng>
        <category1>0</category1>
        <category2>6</category2>
        <category3>6</category3>
    </spot>
    <spot>
        <no>64</no>
        <name>蓬莱橋</name>
        <comment>世界一長い木造歩道橋。木造の古い橋を渡るドキドキ感で二人の距離が急接近！？夕日に包まれる時間もロマンチック。</comment>
        <adress>島田市南2-22-14地先</adress>
        <lat>34.825579</lat>
        <lng>138.184335</lng>
        <category1>4</category1>
        <category2>6</category2>
        <category3>6</category3>
    </spot>
    <spot>
        <no>65</no>
        <name>奥大井湖上駅</name>
        <comment>ホームに幸せを呼ぶ鐘「Happy Happy Bell　風の忘れ物」や、恋人たちが愛を誓い鍵をかける、「愛の鍵箱」が置かれている、大奥井レインボーブリッジに挟まれた湖の上に浮かぶ駅。</comment>
        <adress>榛原郡川根本町犬間</adress>
        <lat>35.10418</lat>
        <lng>138.105076</lng>
        <category1>4</category1>
        <category2>6</category2>
        <category3>6</category3>
    </spot>
    <spot>
        <no>66</no>
        <name>子安観音</name>
        <comment>子安地蔵尊として水子、小児の早世をなぐさめ菩提を弔い今日に至っている。</comment>
        <adress>島田市川根町身成</adress>
        <lat>34.943329</lat>
        <lng>138.086727</lng>
        <category1>1</category1>
        <category2>6</category2>
        <category3>6</category3>
    </spot>
    <spot>
        <no>67</no>
        <name>佐沢薬師堂</name>
        <comment>
            この薬師様は大変美男で、「妻薬師」とも愛称されており、願をかければ良いお嫁さんが授かるともいわれている。薬師堂の横には、「子持ち石」がまつられており、薬師堂で結ばれた夫婦でなくても喜んで授けてくれるといわれている。
        </comment>
        <adress>榛原郡川根本町久野脇</adress>
        <lat>34.998644</lat>
        <lng>138.085098</lng>
        <category1>1</category1>
        <category2>6</category2>
        <category3>6</category3>
    </spot>
    <spot>
        <no>68</no>
        <name>愛宕地蔵堂</name>
        <comment>安産・子供の成長・安泰を守ってくれるお地蔵さま。村民に数百年にわたり信仰されている。</comment>
        <adress>榛原郡川根本町徳山1203-1</adress>
        <lat>35.075652</lat>
        <lng>138.114052</lng>
        <category1>1</category1>
        <category2>6</category2>
        <category3>6</category3>
    </spot>
    <spot>
        <no>69</no>
        <name>島田市　ばらの丘公園</name>
        <comment>リラックス効果も高いバラの香りに包まれながらのデートは二人の距離も自然と近くなりそう。フォトスポットとしてもオススメ。結婚式の相談もしてみよう。</comment>
        <adress>島田市野田1652-1</adress>
        <lat>34.851076</lat>
        <lng>138.17628</lng>
        <category1>4</category1>
        <category2>6</category2>
        <category3>6</category3>
    </spot>
    <spot>
        <no>70</no>
        <name>柏谷公園</name>
        <comment>お子様や家族がよく訪れる公園。国が指定する史跡「柏谷横穴郡（古墳）」のある美しいところ。</comment>
        <adress>函南町柏谷676-1</adress>
        <lat>35.081182</lat>
        <lng>138.956424</lng>
        <category1>4</category1>
        <category2>6</category2>
        <category3>6</category3>
    </spot>
    <spot>
        <no>71</no>
        <name>明香寺</name>
        <comment>江戸時代の名力士・雷電為右衛門が祈願し、女の子を授かったとされる、「子授延命地蔵さま」が。</comment>
        <adress>袋井市愛野2358</adress>
        <lat>34.748416</lat>
        <lng>137.961335</lng>
        <category1>1</category1>
        <category2>6</category2>
        <category3>6</category3>
    </spot>
    <spot>
        <no>72</no>
        <name>大仁の子育地蔵尊</name>
        <comment>｢子授けのお地蔵さん」として、300体余りの小さなお地蔵さんが並ぶ。お地蔵さん1体を借りていき、願いが叶うと借りたお地蔵さんのほかにもう1体添えてお参りする。</comment>
        <adress>伊豆の国市神島（小室地区）</adress>
        <lat>34.998266</lat>
        <lng>138.930776</lng>
        <category1>1</category1>
        <category2>6</category2>
        <category3>6</category3>
    </spot>
    <spot>
        <no>73</no>
        <name>さえずりの丘「幸せの鐘」</name>
        <comment>
            伊豆の国パノラマパーク山頂にある、幸福を呼ぶと言われる鐘。カップルで鳴らすと幸福になるという。厄除除去の神「葛城神社」、導き地蔵「百体地蔵尊」、恋人の聖地の「幸せの鐘」と3点揃ったパワースポットとして若い女性やカップルに人気。
        </comment>
        <adress>伊豆の国市長岡260-1</adress>
        <lat>35.01195</lat>
        <lng>138.920467</lng>
        <category1>0</category1>
        <category2>6</category2>
        <category3>6</category3>
    </spot>
    <spot>
        <no>74</no>
        <name>ムーンロード</name>
        <comment>お月様が海に映る「月の道」（ムーンロード）に10秒間、一生懸命お祈りすれば願い事が叶うと言われる。</comment>
        <adress>賀茂郡東伊豆町奈良本1127付近</adress>
        <lat>34.831577</lat>
        <lng>139.075048</lng>
        <category1>5</category1>
        <category2>6</category2>
        <category3>6</category3>
    </spot>
    <spot>
        <no>75</no>
        <name>梶原山公園</name>
        <comment>週末に限らず平日でもカップルを中心に多くの人が訪れている大人のデートスポット。</comment>
        <adress>静岡市葵区長尾1134</adress>
        <lat>35.051682</lat>
        <lng>138.427088</lng>
        <category1>4</category1>
        <category2>6</category2>
        <category3>6</category3>
    </spot>
    <spot>
        <no>76</no>
        <name>山原の夜景</name>
        <comment>右手の山の形がワニのように見え、夜景を食べているような景色を見つけることができれば恋愛が成就するとウワサの静岡の夜景定番スポット。</comment>
        <adress>静岡市清水区山原　山頂付近</adress>
        <lat>35.057472</lat>
        <lng>138.45005</lng>
        <category1>4</category1>
        <category2>6</category2>
        <category3>6</category3>
    </spot>
    <spot>
        <no>77</no>
        <name>葵タワー最上階</name>
        <comment>最上階にある、フレンチレストラン「ヴォーシエル」では食事をしたカップルに密かにプロポーズをサポート。駅前の好アクセスで街中の夜景を楽しめる。</comment>
        <adress>静岡市葵区紺屋町17番地の1</adress>
        <lat>34.972754</lat>
        <lng>138.386376</lng>
        <category1>4</category1>
        <category2>6</category2>
        <category3>6</category3>
    </spot>
    <spot>
        <no>78</no>
        <name>志戸呂の夜景</name>
        <comment>夜景の中に、「ＬＯＶＥ」の文字をカップルで教えあわずに見つけると「幸福になれる」と言われている。</comment>
        <adress>島田市志戸呂</adress>
        <lat>34.837407</lat>
        <lng>138.111191</lng>
        <category1>0</category1>
        <category2>6</category2>
        <category3>6</category3>
    </spot>
    <spot>
        <no>79</no>
        <name>雲見の蛍</name>
        <comment>数百匹の天然の源氏ホタルを鑑賞でき、とてもロマンチック。カップルで一緒に見れば、幸せになれるという噂も。</comment>
        <adress>賀茂郡松崎町雲見</adress>
        <lat>34.725742</lat>
        <lng>138.74496</lng>
        <category1>0</category1>
        <category2>4</category2>
        <category3>6</category3>
    </spot>
    <spot>
        <no>80</no>
        <name>蓮馨寺の子安地蔵尊</name>
        <comment>安産の地蔵として知られ、穴のあいた柄杓を供えれば安産に。産後は穴の開いていない柄杓を供えれば丈夫に育つと言われる。</comment>
        <adress>三島市広小路町1-39</adress>
        <lat>35.11968</lat>
        <lng>138.911735</lng>
        <category1>1</category1>
        <category2>6</category2>
        <category3>6</category3>
    </spot>
    <spot>
        <no>81</no>
        <name>貴船神社</name>
        <comment>柿田川公園の奥にある神社。えん結び通りの石碑の上の紅白の丸い石「おむすび」に触れて良縁を願って。</comment>
        <adress>駿東郡清水町伏見72-1</adress>
        <lat>35.107792</lat>
        <lng>138.901462</lng>
        <category1>3</category1>
        <category2>6</category2>
        <category3>6</category3>
    </spot>
    <spot>
        <no>82</no>
        <name>蓮光寺</name>
        <comment>副住職から手渡された子宝草を毎日大切にすれば、子宝に恵まれるという噂！</comment>
        <adress>沼津市三芳町1-23</adress>
        <lat>35.102714</lat>
        <lng>38.864356</lng>
        <category1>1</category1>
        <category2>6</category2>
        <category3>6</category3>
    </spot>
    <spot>
        <no>83</no>
        <name>伊豆箱根鉄道のハートつり革</name>
        <comment>伊豆箱根鉄道が保有する全ての電車のつり革に、ハートのつり革が1つだけあり、見つければハッピーになれるかも！</comment>
        <adress>三島市大場300</adress>
        <lat>35.094811</lat>
        <lng>138.938148</lng>
        <category1>4</category1>
        <category2>6</category2>
        <category3>6</category3>
    </spot>
    <spot>
        <no>84</no>
        <name>源兵衛川</name>
        <comment>三島の街を流れる清流「源兵衛川」に沿って歩きながら願えば、良縁に。</comment>
        <adress>三島市芝本町、他</adress>
        <lat>35.12047</lat>
        <lng>138.912477</lng>
        <category1>3</category1>
        <category2>6</category2>
        <category3>6</category3>
    </spot>
    <spot>
        <no>85</no>
        <name>川原ヶ谷のしばられ地蔵</name>
        <comment>安産を祈り、無事に出産後、お礼のため、七尺五寸三分のさらし布をお地蔵さんの体に巻きつけてあげる風習が今も残る。</comment>
        <adress>三島市川原ヶ谷</adress>
        <lat>35.739</lat>
        <lng>138.5618</lng>
        <category1>1</category1>
        <category2>6</category2>
        <category3>6</category3>
    </spot>
    <spot>
        <no>86</no>
        <name>出逢い岬</name>
        <comment>富士山と駿河湾が出逢う景色。夕映えの丘からは夕陽を見れば幸せになる。</comment>
        <adress>沼津市戸田</adress>
        <lat>34.967421</lat>
        <lng>138.801179</lng>
        <category1>4</category1>
        <category2>6</category2>
        <category3>6</category3>
    </spot>
    <spot>
        <no>87</no>
        <name>煌めきの丘</name>
        <comment>太陽の位置によって海面がキラキラと煌めいて見える丘。富士山も正面に見える。</comment>
        <adress>沼津市井田</adress>
        <lat>34.997585</lat>
        <lng>138.783169</lng>
        <category1>4</category1>
        <category2>6</category2>
        <category3>6</category3>
    </spot>
    <spot>
        <no>88</no>
        <name>楽寿園のハート木</name>
        <comment>園内の木に隠れハートの木が6本。全てを見つけることができれば恋愛運がアップ。</comment>
        <adress>三島市一番町19-3</adress>
        <lat>35.124894</lat>
        <lng>138.910919</lng>
        <category1>0</category1>
        <category2>6</category2>
        <category3>6</category3>
    </spot>
    <spot>
        <no>89</no>
        <name>下土狩の大イチョウ</name>
        <comment>根元にあるほこらを子安神社といい、母乳の出が良くなるよう乳房を型どったものを奉納。静岡県指定天然記念物。</comment>
        <adress>駿東郡長泉町下土狩</adress>
        <lat>35.128859</lat>
        <lng>138.901037</lng>
        <category1>1</category1>
        <category2>6</category2>
        <category3>6</category3>
    </spot>
    <spot>
        <no>90</no>
        <name>ハート型のピザ『fontana』</name>
        <comment>オーダー時に「ハート型に！」と伝えれば、ハート型のピザを出してくれる。それを食べれば恋愛運がアップするという噂。通常のピザ同様に種類やトッピングが選べる。</comment>
        <adress>駿東郡清水町長沢881-7</adress>
        <lat>35.099621</lat>
        <lng>138.890977</lng>
        <category1>0</category1>
        <category2>6</category2>
        <category3>6</category3>
    </spot>
    <spot>
        <no>91</no>
        <name>みしまコロッケ『大村精肉店』</name>
        <comment>三島で採れたメークインだけを使った人気ご当地グルメの「みしまコロッケ」。ハート型にしたところ食べれば恋愛運アップで恋が実るというウワサに。</comment>
        <adress>三島市大社町2-27</adress>
        <lat>35.118755</lat>
        <lng>138.919479</lng>
        <category1>0</category1>
        <category2>6</category2>
        <category3>6</category3>
    </spot>
    <spot>
        <no>92</no>
        <name>子宝キャベツ</name>
        <comment>甘くておいしいだけではなく、ミネラルがたっぷりで食べれば子宝に恵まれるという。栽培する鈴木さんは5人の子宝に恵まれている！</comment>
        <adress>三島市三ツ谷新田432</adress>
        <lat>35.14352</lat>
        <lng>138.971761</lng>
        <category1>1</category1>
        <category2>6</category2>
        <category3>6</category3>
    </spot>
    <spot>
        <no>93</no>
        <name>岳南鉄道</name>
        <comment>通勤・通学にも多く利用されている地元の足。利用者同士のカップルが多くいるという噂。電車内での結婚式や婚活イベントも開催中！</comment>
        <adress>富士市今泉1-17-39</adress>
        <lat>35.161973</lat>
        <lng>138.692625</lng>
        <category1>4</category1>
        <category2>6</category2>
        <category3>6</category3>
    </spot>
    <spot>
        <no>94</no>
        <name>田貫湖ダイヤモンド富士</name>
        <comment>一年にたった2回しか見ることができない自然の芸術作品。見ることができたカップルは幸せになれると言われている。</comment>
        <adress>富士宮市佐折633-14</adress>
        <lat>35.340404</lat>
        <lng>138.555365</lng>
        <category1>0</category1>
        <category2>6</category2>
        <category3>6</category3>
    </spot>
    <spot>
        <no>95</no>
        <name>神場山神社</name>
        <comment>御神木は「よろこぶの木」と呼ばれ、こぶを3度なでて、その手で自分のしこりをなでると、諸病を治してくれると昔から伝えられている。</comment>
        <adress>御殿場市神場1138-1</adress>
        <lat>35.285064</lat>
        <lng>138.904288</lng>
        <category1>5</category1>
        <category2>6</category2>
        <category3>6</category3>
    </spot>
    <spot>
        <no>96</no>
        <name>杉田子安神社</name>
        <comment>古来より、木彫りの犬像を撫でれば子宝に恵まれるとされる。</comment>
        <adress>富士宮市杉田215</adress>
        <lat>35.213368</lat>
        <lng>138.659799</lng>
        <category1>1</category1>
        <category2>6</category2>
        <category3>6</category3>
    </spot>
    <spot>
        <no>97</no>
        <name>誓いの丘</name>
        <comment>鐘を鳴らして愛を誓い、ハートのモニュメントに二人で鍵をかけ、お互いの鍵を交換して大切に持っていよう。</comment>
        <adress>駿東郡小山町竹之下地内</adress>
        <lat>35.335888</lat>
        <lng>139.001212</lng>
        <category1>0</category1>
        <category2>6</category2>
        <category3>6</category3>
    </spot>
    <spot>
        <no>98</no>
        <name>駒門風穴</name>
        <comment>富士山の噴火によりできた駒門風穴に幾つかの社が祀られていて、入口には子安神社があり安産を祈願する。</comment>
        <adress>御殿場市駒門69</adress>
        <lat>35.25075</lat>
        <lng>138.913757</lng>
        <category1>1</category1>
        <category2>6</category2>
        <category3>6</category3>
    </spot>
    <spot>
        <no>99</no>
        <name>遊女の滝</name>
        <comment>金太郎の母と言われる八重桐が滝に身を打たれ、生まれてくる金太郎の健康と安産を祈願したという言い伝えがある滝。</comment>
        <adress>駿東郡小山町小山</adress>
        <lat>35.339345</lat>
        <lng>139.003583</lng>
        <category1>1</category1>
        <category2>5</category2>
        <category3>6</category3>
    </spot>
    <spot>
        <no>100</no>
        <name>富士市中央公園バラ園</name>
        <comment>「クリスマス」に、カリヨン時計から流れる曲目をカップルで全て聴くことができると、幸せになると言われている。</comment>
        <adress>富士市永田町2-112</adress>
        <lat>35.162554</lat>
        <lng>138.672448</lng>
        <category1>0</category1>
        <category2>6</category2>
        <category3>6</category3>
    </spot>
    <spot>
        <no>101</no>
        <name>ハートランド・朝霧</name>
        <comment>敷地内にある草原の少し盛り上がった山の上で、前面に見える富士山を拝みながら願い事を叶うと噂に！</comment>
        <adress>富士宮市根原228</adress>
        <lat>35.392708</lat>
        <lng>138.582146</lng>
        <category1>5</category1>
        <category2>6</category2>
        <category3>6</category3>
    </spot>
    <spot>
        <no>102</no>
        <name>子安地蔵</name>
        <comment>子安地蔵のある栗倉の地では、その建立時から現在に至るまで皆が安産に恵まれており、女性の守り神として祀られている。</comment>
        <adress>富士宮市栗倉547付近</adress>
        <lat>35.258792</lat>
        <lng>138.652192</lng>
        <category1>1</category1>
        <category2>6</category2>
        <category3>6</category3>
    </spot>
    <spot>
        <no>103</no>
        <name>村山浅間神社のイチョウ</name>
        <comment>その昔イチョウの気根を乳房に見立て、先端に針を刺して母乳の出を祈願していたといわれるイチョウの木。</comment>
        <adress>富士宮市村山1151</adress>
        <lat>35.242736</lat>
        <lng>138.656021</lng>
        <category1>1</category1>
        <category2>4</category2>
        <category3>6</category3>
    </spot>
    <spot>
        <no>104</no>
        <name>田向地蔵堂</name>
        <comment>近所のお年寄りに「安産」の念仏を唱えてもらい、お産が始まったらいただいたロウソクに火を灯すと、お産が軽く済むと言われている。</comment>
        <adress>裾野市須山110</adress>
        <lat>35.245882</lat>
        <lng>138.84706</lng>
        <category1>1</category1>
        <category2>6</category2>
        <category3>6</category3>
    </spot>
    <spot>
        <no>105</no>
        <name>御殿場わらじ祭り</name>
        <comment>大きなわらじを未婚女性だけで担いで歩く祭り。わらじの神輿を担いだ女性や、この祭りに関わった女性は良縁に恵まれ幸せになると言われている。</comment>
        <adress>御殿場市新橋2081-1（新橋浅間神社）</adress>
        <lat>35.300421</lat>
        <lng>138.930923</lng>
        <category1>3</category1>
        <category2>6</category2>
        <category3>6</category3>
    </spot>
    <spot>
        <no>106</no>
        <name>胎内神社</name>
        <comment>御胎内清宏園の中にある富士山の噴火で出来た溶岩隧道といわれる洞窟は、人の身体の内部に似ていることから「御胎内」と言われ、昔より安産祈願や諸願成就のパワースポットとして親しまれている。</comment>
        <adress>御殿場市印野1382-1</adress>
        <lat>35.30238</lat>
        <lng>138.879166</lng>
        <category1>1</category1>
        <category2>5</category2>
        <category3>6</category3>
    </spot>
    <spot>
        <no>107</no>
        <name>大まる様</name>
        <comment>ご神体は「男性のシンボル」そのもの。若い女の子がお色気作戦で参拝すれば、願いを叶えてくれるそう。</comment>
        <adress>周智郡森町亀久保</adress>
        <lat>34.736031</lat>
        <lng>137.976495</lng>
        <category1>5</category1>
        <category2>6</category2>
        <category3>6</category3>
    </spot>
    <spot>
        <no>108</no>
        <name>可睡斎</name>
        <comment>ゆりの名所として知られる。「そわか念珠」は左手にかけ一心に念ずれば願いが叶う。「お清めの輪」はお守りに。</comment>
        <adress>袋井市久能2915-1</adress>
        <lat>34.775068</lat>
        <lng>137.91991</lng>
        <category1>5</category1>
        <category2>6</category2>
        <category3>6</category3>
    </spot>
    <spot>
        <no>109</no>
        <name>縁結びの妻薬師</name>
        <comment>建福寺のお薬師様の枕を借りてお願いし、良縁に恵まれた時には紅白の枕をお礼にお返しする。</comment>
        <adress>袋井市川会1083</adress>
        <lat>34.805986</lat>
        <lng>137.87278</lng>
        <category1>3</category1>
        <category2>6</category2>
        <category3>6</category3>
    </spot>
    <spot>
        <no>110</no>
        <name>須山浅間神社</name>
        <comment>古くより夫婦円満、多産、安産、子宝の神として信仰され、恋愛や結婚を願う女性からも人気の神社。御神木とされているスギの大木は、触れて恋愛を祈願すれば成就と言われる。</comment>
        <adress>裾野市須山722</adress>
        <lat>35.263808</lat>
        <lng>138.820453</lng>
        <category1>1</category1>
        <category2>0</category2>
        <category3>6</category3>
    </spot>
    <spot>
        <no>111</no>
        <name>セイリングベル（エスパルスドリームプラザ）</name>
        <comment>角度によってハートに見えるモニュメント。「ＬＯＶＥ」という文字が隠れているので見つけたら鐘を鳴らそう。ここは恋人の聖地。カップルで鐘を鳴らすと一層幸せになれる。</comment>
        <adress>静岡市清水区入船町１３-１５</adress>
        <lat>5.010586</lat>
        <lng>138.49293</lng>
        <category1>0</category1>
        <category2>6</category2>
        <category3>6</category3>
    </spot>
    <spot>
        <no>112</no>
        <name>オーシャンプリンセス号</name>
        <comment>海の貴婦人と呼ばれる豪華客船。指揮者カラヤン、イタリアの実業家フェラーリー族、女優エリザベステーラーもこの帆船で優雅な時間を過ごしたことがあるとか。形式にとらわれない船上ウェディングに最適。
        </comment>
        <adress>静岡市清水区日の出町10-80</adress>
        <lat>35.009153</lat>
        <lng>138.496866</lng>
        <category1>4</category1>
        <category2>6</category2>
        <category3>6</category3>
    </spot>
    <spot>
        <no>113</no>
        <name>駿府匠宿</name>
        <comment>丸子の自然に囲まれながら、ものづくりの喜びや面白さを感じられるデートスポット！</comment>
        <adress>静岡市駿河区丸子3240-1</adress>
        <lat>34.953625</lat>
        <lng>138.332932</lng>
        <category1>4</category1>
        <category2>6</category2>
        <category3>6</category3>
    </spot>
    <spot>
        <no>114</no>
        <name>日本平動物園の白クマ</name>
        <comment>「ロッシー」とお嫁さん「バニラ」の熱々の様子を見れば、二人の仲がより親密になっちゃうかも。</comment>
        <adress>静岡市駿河区池田1767-6</adress>
        <lat>34.980415</lat>
        <lng>138.437696</lng>
        <category1>4</category1>
        <category2>6</category2>
        <category3>6</category3>
    </spot>
    <spot>
        <no>115</no>
        <name>中之郷の閻魔さま（鳳林寺）</name>
        <comment>この閻魔さまを拝めば、この世での罪が許され極楽に行け、また子宝にも恵まれ代々繁栄すると伝えられている。</comment>
        <adress>静岡市清水区中之郷1-10-23</adress>
        <lat>34.99903</lat>
        <lng>138.44116</lng>
        <category1>1</category1>
        <category2>6</category2>
        <category3>6</category3>
    </spot>
    <spot>
        <no>116</no>
        <name>三池の子授け地蔵</name>
        <comment>子どもに恵まれない人が、この中の一体を借りて持ち帰り、子供が授かった時は、お礼に二体にして返すという言い伝えがある。</comment>
        <adress>静岡市清水区原459-3</adress>
        <lat>35.053008</lat>
        <lng>138.477937</lng>
        <category1>1</category1>
        <category2>6</category2>
        <category3>6</category3>
    </spot>
    <spot>
        <no>117</no>
        <name>坪井畳店の寝ござ</name>
        <comment>
            日本の畳の良さを今の若い世代の女性に知ってもらいたいと『ハート』柄のデザインを考案。このハートの「畳」や「ござ」を部屋に敷いておくと恋愛運がアップすると噂に！遥々横浜から買い求めに来たお客さんもいるそう。
        </comment>
        <adress>静岡市清水区西久保243-3</adress>
        <lat>35.032394</lat>
        <lng>138.490099</lng>
        <category1>0</category1>
        <category2>6</category2>
        <category3>6</category3>
    </spot>
    <spot>
        <no>118</no>
        <name>産女観音（正信院）</name>
        <comment>観音さまに祈願すれば子宝に恵まれ、安産になるといわれている。</comment>
        <adress>静岡市葵区産女1133</adress>
        <lat>34.976842</lat>
        <lng>138.329065</lng>
        <category1>1</category1>
        <category2>6</category2>
        <category3>6</category3>
    </spot>
    <spot>
        <no>119</no>
        <name>静岡浅間神社</name>
        <comment>「安産」、「子授け」、「縁結び」、「家内安全」、「商売繁盛」、「必勝祈願」などの参拝者が絶えない駿河の総鎮守。</comment>
        <adress>静岡市葵区宮ヶ崎町102-1</adress>
        <lat>34.98338</lat>
        <lng>138.375354</lng>
        <category1>1</category1>
        <category2>3</category2>
        <category3>6</category3>
    </spot>
    <spot>
        <no>120</no>
        <name>久能山東照宮</name>
        <comment>1159段の数字にちなんで「いちいちご苦労さん」と呼ばれている石段。夫婦やカップルで励ましあいながら登ろう！</comment>
        <adress>静岡市駿河区根古屋390</adress>
        <lat>34.963562</lat>
        <lng>138.46698</lng>
        <category1>4</category1>
        <category2>6</category2>
        <category3>6</category3>
    </spot>
    <spot>
        <no>121</no>
        <name>日本平ロープウェイ</name>
        <comment>錠前を専用の柵に掛け、恋人の聖地「絆のモニュメント」に鍵を納めることによって二人の愛は永遠に。ロープウェイ切符売り場で「絆の鍵」が購入できる。</comment>
        <adress>静岡市清水区草薙597-8（日本平山頂）</adress>
        <lat>34.974384</lat>
        <lng>138.463783</lng>
        <category1>0</category1>
        <category2>6</category2>
        <category3>6</category3>
    </spot>
    <spot>
        <no>122</no>
        <name>水川阿弥陀堂</name>
        <comment>内部に描かれた天井絵は、掛川藩のお抱え絵師「村松以弘（むらまついこう）作。大変貴重なため普段見ることはできないが、参拝すれば「良縁に恵まれる」といわれている。</comment>
        <adress>榛原郡川根本町水川467</adress>
        <lat>35.062259</lat>
        <lng>138.095698</lng>
        <category1>3</category1>
        <category2>6</category2>
        <category3>6</category3>
    </spot>
    <spot>
        <no>123</no>
        <name>やまゆり</name>
        <comment>そば打ちやパン作り・菓子作りなど、さまざまな体験ができる。ここまで出会ってゴールインしたカップルも。デートで行くのもオススメ！</comment>
        <adress>島田市伊久美5202</adress>
        <lat>34.919349</lat>
        <lng>138.125798</lng>
        <category1>4</category1>
        <category2>6</category2>
        <category3>6</category3>
    </spot>
    <spot>
        <no>124</no>
        <name>さくら茶屋の『こんかつ』</name>
        <comment>若い女子たちの間で密かなブームになっているその名も「こんかつ」下味をつけたこんにゃくをサクサクに揚げた縁結びカツ。（要予約）</comment>
        <adress>島田市川根町家山4164-1</adress>
        <lat>34.932556</lat>
        <lng>138.076992</lng>
        <category1>3</category1>
        <category2>6</category2>
        <category3>6</category3>
    </spot>
    <spot>
        <no>125</no>
        <name>女神社</name>
        <comment>子授け・安産・多産にご利益があるとされ、子宝を授かった者は、底の抜けた布袋を奉納して安産を祈願する。</comment>
        <adress>牧之原市女神110（女神山山頂）</adress>
        <lat>34.707864</lat>
        <lng>138.180468</lng>
        <category1>1</category1>
        <category2>6</category2>
        <category3>6</category3>
    </spot>
    <spot>
        <no>126</no>
        <name>一幡神社</name>
        <comment>無形文化財田楽系の民俗行事「御榊神事」が有名な神社。餅をご飯に混ぜて炊くと安産のお守りになる。</comment>
        <adress>牧之原市菅ヶ谷3786</adress>
        <lat>34.699209</lat>
        <lng>138.17608</lng>
        <category1>1</category1>
        <category2>6</category2>
        <category3>6</category3>
    </spot>
    <spot>
        <no>127</no>
        <name>孕石神社</name>
        <comment>子宝を祈願する男女が「お守りとして持ち帰る」孕石。小石をとり、お腹に巻き、毎日お祈りすると「子どもが授かる」。</comment>
        <adress>掛川市孕石195</adress>
        <lat>34.853302</lat>
        <lng>138.012714</lng>
        <category1>1</category1>
        <category2>6</category2>
        <category3>6</category3>
    </spot>
    <spot>
        <no>128</no>
        <name>子生まれ石（大興寺）</name>
        <comment>遠州七不思議の一つである「子生まれ石」の伝説。「安産・長寿の石」として信仰されている。</comment>
        <adress>牧之原市西萩間426</adress>
        <lat>34.731054</lat>
        <lng>138.158156</lng>
        <category1>1</category1>
        <category2>5</category2>
        <category3>6</category3>
    </spot>
    <spot>
        <no>129</no>
        <name>さがら子生れ温泉</name>
        <comment>「長寿の湯」・「子授けの湯」・「安産の湯」として親しまれる。</comment>
        <adress>牧之原市西萩間672-1</adress>
        <lat>34.734815</lat>
        <lng>138.160323</lng>
        <category1>1</category1>
        <category2>5</category2>
        <category3>6</category3>
    </spot>
    <spot>
        <no>130</no>
        <name>三熊野神社</name>
        <comment>子宝神社として有名な三熊野神社。大祭では「神子抱き神事」が行われる。ご神体の化身である「おねんねこ様」を抱いて祈願すると、子宝に恵まれる。</comment>
        <adress>掛川市西大渕5631-1</adress>
        <lat>34.682513</lat>
        <lng>137.983482</lng>
        <category1>1</category1>
        <category2>6</category2>
        <category3>6</category3>
    </spot>
    <spot>
        <no>131</no>
        <name>事任八幡宮のクスノキ</name>
        <comment>「抱きつくと願いが叶う」と口コミで評判の巨大なクスノキ。まるで人の耳のような穴があり、参拝者の声を聞いているらしい。</comment>
        <adress>掛川市八坂642</adress>
        <lat>34.79839</lat>
        <lng>138.075428</lng>
        <category1>4</category1>
        <category2>6</category2>
        <category3>6</category3>
    </spot>
    <spot>
        <no>132</no>
        <name>掛川花鳥園ハート型フレーム</name>
        <comment>ハート型の花フレームでの記念撮影やハートの顔をしたメンフクロウとのふれあいと記念撮影、絆の羽のエミューなど「幸せスポット」がいっぱい。</comment>
        <adress>掛川市南西郷1517</adress>
        <lat>34.761715</lat>
        <lng>138.015369</lng>
        <category1>4</category1>
        <category2>6</category2>
        <category3>6</category3>
    </spot>
    <spot>
        <no>133</no>
        <name>蛭ヶ谷の田遊び</name>
        <comment>毎年2月に蛭児（ひるご）神社で若者たちが豊作・子授けなどを願った舞が舞われる。</comment>
        <adress>牧之原市蛭ヶ谷1</adress>
        <lat>34.728616</lat>
        <lng>138.215426</lng>
        <category1>1</category1>
        <category2>6</category2>
        <category3>6</category3>
    </spot>
    <spot>
        <no>134</no>
        <name>鬼子母神画（慶住寺）</name>
        <comment>ざくろを食べて気が収まる鬼子母神。子宝と安産を祈願。</comment>
        <adress>牧之原市静波1258</adress>
        <lat>34.740743</lat>
        <lng>138.22976</lng>
        <category1>1</category1>
        <category2>6</category2>
        <category3>6</category3>
    </spot>
    <spot>
        <no>135</no>
        <name>晴明塚</name>
        <comment>赤い石を1個借り、お礼に2個返す。するとどんな石もあずき色に変わる。</comment>
        <adress>掛川市大洲</adress>
        <lat>34.660278</lat>
        <lng>138.014556</lng>
        <category1>4</category1>
        <category2>6</category2>
        <category3>6</category3>
    </spot>
    <spot>
        <no>136</no>
        <name>牧之原のお地蔵さま＆観音さま大集合！（大奇の子育て地蔵）
        </name>
        <comment>どのお地蔵さまも東名相良牧之原ICより約15分ほどのところに佇む子授け・子育て地蔵。お地蔵さまめぐりをしてみよう。</comment>
        <adress>牧之原市大奇318（大奇地区公民館東側）</adress>
        <lat>34.714152</lat>
        <lng>138.169907</lng>
        <category1>1</category1>
        <category2>6</category2>
        <category3>6</category3>
    </spot>
    <spot>
        <no>137</no>
        <name>牧之原のお地蔵さま＆観音さま大集合！（善明院の子育地蔵尊）
        </name>
        <comment>どのお地蔵さまも東名相良牧之原ICより約15分ほどのところに佇む子授け・子育て地蔵。お地蔵さまめぐりをしてみよう。</comment>
        <adress>牧之原市須々木341</adress>
        <lat>34.672591</lat>
        <lng>138.194043</lng>
        <category1>1</category1>
        <category2>6</category2>
        <category3>6</category3>
    </spot>
    <spot>
        <no>138</no>
        <name>牧之原のお地蔵さま＆観音さま大集合！（東光寺の子育地蔵）
        </name>
        <comment>どのお地蔵さまも東名相良牧之原ICより約15分ほどのところに佇む子授け・子育て地蔵。お地蔵さまめぐりをしてみよう。</comment>
        <adress>牧之原市静波2587-1（東光寺）</adress>
        <lat>34.732277</lat>
        <lng>138.22115</lng>
        <category1>1</category1>
        <category2>6</category2>
        <category3>6</category3>
    </spot>
    <spot>
        <no>139</no>
        <name>牧之原のお地蔵さま＆観音さま大集合！（安楽寺の子養地蔵尊）
        </name>
        <comment>どのお地蔵さまも東名相良牧之原ICより約15分ほどのところに佇む子授け・子育て地蔵。お地蔵さまめぐりをしてみよう。</comment>
        <adress>牧之原市静波577（安楽寺）</adress>
        <lat>34.758462</lat>
        <lng>138.166359</lng>
        <category1>1</category1>
        <category2>6</category2>
        <category3>6</category3>
    </spot>
    <spot>
        <no>140</no>
        <name>牧之原のお地蔵さま＆観音さま大集合！（権九観音）
        </name>
        <comment>どのお地蔵さまも東名相良牧之原ICより約15分ほどのところに佇む子授け・子育て地蔵。お地蔵さまめぐりをしてみよう。</comment>
        <adress>牧之原市静谷1021</adress>
        <lat>34.75659</lat>
        <lng>138.175623</lng>
        <category1>1</category1>
        <category2>6</category2>
        <category3>6</category3>
    </spot>
    <spot>
        <no>141</no>
        <name>牧之原のお地蔵さま＆観音さま大集合！（照国寺千躰堂の子授かり観音）
        </name>
        <comment>どのお地蔵さまも東名相良牧之原ICより約15分ほどのところに佇む子授け・子育て地蔵。お地蔵さまめぐりをしてみよう。</comment>
        <adress>牧之原市細江3638（照国寺）</adress>
        <lat>34.753874</lat>
        <lng>138.232599</lng>
        <category1>1</category1>
        <category2>6</category2>
        <category3>6</category3>
    </spot>
    <spot>
        <no>142</no>
        <name>牧之原のお地蔵さま＆観音さま大集合！（清浄寺の如意輪観音）
        </name>
        <comment>どのお地蔵さまも東名相良牧之原ICより約15分ほどのところに佇む子授け・子育て地蔵。お地蔵さまめぐりをしてみよう。</comment>
        <adress>牧之原市道場68（清浄寺）</adress>
        <lat>34.728616</lat>
        <lng>138.215426</lng>
        <category1>1</category1>
        <category2>6</category2>
        <category3>6</category3>
    </spot>
    <spot>
        <no>143</no>
        <name>舞車</name>
        <comment>いわた大祭りのメインは「舞車引き合わせ・薪舞」。若い夫婦の愛の再会物語。</comment>
        <adress>磐田市見付　見付宿場通り</adress>
        <lat>34.726575</lat>
        <lng>137.856243</lng>
        <category1>4</category1>
        <category2>6</category2>
        <category3>6</category3>
    </spot>
    <spot>
        <no>144</no>
        <name>天宮神社</name>
        <comment>新木が絶えないナギの木は、夫婦や恋人との縁が切れずに千年の契りが結ばれる縁結びの樹木として信仰されているよ！</comment>
        <adress>周智郡森町天宮576</adress>
        <lat>34.843901</lat>
        <lng>137.934296</lng>
        <category1>3</category1>
        <category2>6</category2>
        <category3>6</category3>
    </spot>
    <spot>
        <no>145</no>
        <name>ラブラブ縁結び弁当</name>
        <comment>これがまさに（縁）むすび！？食べれば良縁に恵まれるという。「良縁にめぐまれますように！」</comment>
        <adress>静岡市駿河区曲金6丁目2-3</adress>
        <lat>34.978656</lat>
        <lng>138.409924</lng>
        <category1>3</category1>
        <category2>6</category2>
        <category3>6</category3>
    </spot>
    <spot>
        <no>146</no>
        <name>久能のイチゴ狩り</name>
        <comment>カップルでイチゴ狩りをすれば、いちごの甘い香りに包まれて、幸せになれる！？特に冬の寒い季節、ハウスの中は絶好のデートスポット。</comment>
        <adress>静岡市駿河区根古屋周辺　いちご海岸通り</adress>
        <lat>34.951172</lat>
        <lng>138.437433</lng>
        <category1>4</category1>
        <category2>6</category2>
        <category3>6</category3>
    </spot>
    <spot>
        <no>147</no>
        <name>子安神社</name>
        <comment>安産を願う人が底の抜けた柄杓を奉納して参拝し、無事子供が産まれると、再び底の抜けた柄杓を奉納してお礼に参ると伝えられている。</comment>
        <adress>焼津市上新田751</adress>
        <lat>34.820806</lat>
        <lng>138.269162</lng>
        <category1>1</category1>
        <category2>6</category2>
        <category3>6</category3>
    </spot>
    <spot>
        <no>148</no>
        <name>熊野神社</name>
        <comment>天照大御神より日本最初の女性の神様である伊邪那美（イザナミ）の命（ミコト）を祀っている。多産の女神として古くから信仰をあつめている。</comment>
        <adress>焼津市東小川5-9-3</adress>
        <lat>34.856602</lat>
        <lng>138.310563</lng>
        <category1>1</category1>
        <category2>6</category2>
        <category3>6</category3>
    </spot>
    <spot>
        <no>149</no>
        <name>萬福の夫婦もなか</name>
        <comment>自家焼きの最中皮に粒あんと白あんの夫婦あんが仲睦まじく入っている手作りもなか（要予約）コレを食べると夫婦仲や恋人との仲が良くなると噂。味も絶品。</comment>
        <adress>藤枝市大洲2-10-11</adress>
        <lat>34.831407</lat>
        <lng>138.247699</lng>
        <category1>4</category1>
        <category2>6</category2>
        <category3>6</category3>
    </spot>
    <spot>
        <no>150</no>
        <name>孕石（柳沢稲荷神社）</name>
        <comment>その昔、子宝に恵まれなかった夫婦が、神様のお告げによりこの石を抱えて拝んだところ、玉のような赤ちゃんを授かったと伝えられている。</comment>
        <adress>藤枝市岡部町内谷379</adress>
        <lat>34.913134</lat>
        <lng>138.283957</lng>
        <category1>1</category1>
        <category2>6</category2>
        <category3>6</category3>
    </spot>
    <spot>
        <no>151</no>
        <name>子持坂</name>
        <comment>若宮八幡宮の西側に続く坂道。狼が男児を咥えて現れ出た場所とされ、このことにちなんで「子持坂」という地名ができたといわれている。</comment>
        <adress>藤枝市岡部町子持坂</adress>
        <lat>34.910825</lat>
        <lng>138.271233</lng>
        <category1>1</category1>
        <category2>6</category2>
        <category3>6</category3>
    </spot>
    <spot>
        <no>152</no>
        <name>若宮八幡宮</name>
        <comment>
            その昔、後継ぎのなかった殿様が若宮八幡宮に願をかけたところ、ある夜、錦の衣に包まれた男児を咥えた一匹の狼が現れ、喜んだ殿様はこの男児を後継ぎとして立派に育て上げたそう。このことから、子宝祈願の神社として深く信仰されている。
        </comment>
        <adress>藤枝市岡部町岡部82-1</adress>
        <lat>34.908964</lat>
        <lng>138.279076</lng>
        <category1>1</category1>
        <category2>6</category2>
        <category3>6</category3>
    </spot>
    <spot>
        <no>153</no>
        <name>アクアスやいづ</name>
        <comment>人間の自己治癒力を高めるタラソテラピーを体験できる。長年不妊治療を受けてきた方が、タラソテラピーを受けてから赤ちゃんを授かったという話がある。</comment>
        <adress>焼津市鰯ヶ島136-26</adress>
        <lat>34.858385</lat>
        <lng>138.324875</lng>
        <category1>1</category1>
        <category2>6</category2>
        <category3>6</category3>
    </spot>
    <spot>
        <no>154</no>
        <name>地球が丸く見えるん台</name>
        <comment>
            灯台から続く遊歩道の展望台「夕日と風が見えるん台」にある「潮騒の像」が太平洋に向かって手をかざして見守る。一面を真っ赤に染める夕日はロマンティック。サンセットプロポーズをふたりの思い出に。「地球が丸く見えるん台」から水平線を眺めれば、まあるい地球を実感できる。
        </comment>
        <adress>御前崎市御前崎</adress>
        <lat>34.595911</lat>
        <lng>138.22552</lng>
        <category1>4</category1>
        <category2>6</category2>
        <category3>6</category3>
    </spot>
    <spot>
        <no>155</no>
        <name>夕日と風が見えるん台</name>
        <comment>
            灯台から続く遊歩道の展望台「夕日と風が見えるん台」にある「潮騒の像」が太平洋に向かって手をかざして見守る。一面を真っ赤に染める夕日はロマンティック。サンセットプロポーズをふたりの思い出に。「地球が丸く見えるん台」から水平線を眺めれば、まあるい地球を実感できる。
        </comment>
        <adress>御前崎市御前崎</adress>
        <lat>34.595911</lat>
        <lng>138.22552</lng>
        <category1>4</category1>
        <category2>6</category2>
        <category3>6</category3>
    </spot>
    <spot>
        <no>156</no>
        <name>オープンハートローズ</name>
        <comment>
            2011年の秋にデビューしたばかりのバラ「オープンハートローズ」。愛する彼女にプレゼントすれば、より想いが伝わって、二人の距離はさらに縮まる！と口コミで話題に。ハウス栽培なので暑い7月、8月を除いて、ほぼ一年中購入できるそう。まだ限られたフラワーショップですが、販売先をどんどん拡大中。
        </comment>
        <adress>菊川市下内田3732</adress>
        <lat>138.0773578</lat>
        <lng>34.7187514</lng>
        <category1>4</category1>
        <category2>6</category2>
        <category3>6</category3>
    </spot>
    <spot>
        <no>157</no>
        <name>法多山</name>
        <comment>厄除けで有名な法多山では、「早期良縁」や「安産祈願」など、縁結びに関してご祈祷も受け付けている。</comment>
        <adress>袋井市豊沢2777</adress>
        <lat>34.736031</lat>
        <lng>137.976495</lng>
        <category1>3</category1>
        <category2>1</category2>
        <category3>6</category3>
    </spot>
    <spot>
        <no>158</no>
        <name>愛野公園の愛の鐘</name>
        <comment>「過去」「現在」「未来」への願いを込めて1度ずつ、3回鳴らす。</comment>
        <adress>袋井市豊沢1727</adress>
        <lat>34.745458</lat>
        <lng>137.944234</lng>
        <category1>4</category1>
        <category2>5</category2>
        <category3>6</category3>
    </spot>
    <spot>
        <no>159</no>
        <name>代継ぎのすりこぎ（大洞院）</name>
        <comment>代継ぎの杉の木からとって造った「すりこぎ」の一部を削って枕元におくと子どもが授かると言われているそう。</comment>
        <adress>周智郡森町橘249</adress>
        <lat>34.855735</lat>
        <lng>137.915561</lng>
        <category1>1</category1>
        <category2>6</category2>
        <category3>6</category3>
    </spot>
    <spot>
        <no>160</no>
        <name>願いが叶う石（小國神社）</name>
        <comment>
            願いを込めて石をなでたあと、その願いが叶うのを待つように松をなでると、良縁や金運に効くという、金銀石と願掛け松。また、境内にある「ひょうの木」から落ちる「ひょうの実」を拾うと、恋が叶うかも！探してみよう！
        </comment>
        <adress>周智郡森町一宮3956-1</adress>
        <lat>34.847355</lat>
        <lng>137.899441</lng>
        <category1>3</category1>
        <category2>5</category2>
        <category3>6</category3>
    </spot>
    <spot>
        <no>161</no>
        <name>大クスとナギの木（東福山西光寺）</name>
        <comment>
            徳川家ゆかりの「日限地蔵尊」には約400年もの間良縁を祈願する人が絶えない。力強い男性と、繊細な女性が寄り添っているかのような「大クス」や、横に切れにくいことから縁結びの象徴とされている「ナギの葉」もある。
        </comment>
        <adress>磐田市見付加茂川通り3353-1</adress>
        <lat>34.719703</lat>
        <lng>137.861489</lng>
        <category1>3</category1>
        <category2>6</category2>
        <category3>6</category3>
    </spot>
    <spot>
        <no>162</no>
        <name>チョコ味かりんとう</name>
        <comment>『隠れ河原のかりん糖』の「和チョコのかりんとう」は、良縁に効くと評判。和菓子のかりんとうと、チョコレートを合わせたもので、和を結ぶとして多くの人が買いに来るそう。発売期間は秋から春。</comment>
        <adress>周智郡森町一宮3956-1　小國ことまち横丁</adress>
        <lat>34.847355</lat>
        <lng>137.899441</lng>
        <category1>3</category1>
        <category2>6</category2>
        <category3>6</category3>
    </spot>
    <spot>
        <no>163</no>
        <name>太田茶屋のお茶</name>
        <comment>
            飲むと縁結びのご利益があるかもという「天使の矢」。太田茶店にはカップルや家族で座れば、より縁が深まるらしいと評判の「縁結びの丸太」や、静かに鈴を鳴らし、その音色に幸福を願えば今以上の幸せが訪れるとされる「幸福を運ぶ銀の鈴」もある。
        </comment>
        <adress>周智郡森町一宮3822</adress>
        <lat>34.838318</lat>
        <lng>137.897902</lng>
        <category1>3</category1>
        <category2>6</category2>
        <category3>6</category3>
    </spot>
    <spot>
        <no>164</no>
        <name>ガーデンパークのコスモス</name>
        <comment>四季折々の植物やイベントが楽しめる浜名湖ガーデンパーク。展望塔にのぼり、そこからの壮大な景色と一緒に地上絵を眺めると「幸せになれる」という。</comment>
        <adress>浜松市西区村櫛町5475-1</adress>
        <lat>34.713425</lat>
        <lng>137.599303</lng>
        <category1>4</category1>
        <category2>6</category2>
        <category3>6</category3>
    </spot>
    <spot>
        <no>165</no>
        <name>東雲寺の摩利支天</name>
        <comment>勝負必勝の神様として有名な摩利支天。本来は安産・航海・大漁・勝負の神様として信仰を集めている。</comment>
        <adress>湖西市神座463</adress>
        <lat>34.738984</lat>
        <lng>137.495316</lng>
        <category1>1</category1>
        <category2>6</category2>
        <category3>6</category3>
    </spot>
    <spot>
        <no>166</no>
        <name>アクトタワーの展望回廊</name>
        <comment>好きな人と一緒に展望回廊で富士山がキレイに見えたら、その人と結ばれるというウワサが。</comment>
        <adress>浜松市中区板屋町111-2</adress>
        <lat>34.705557</lat>
        <lng>137.737117</lng>
        <category1>4</category1>
        <category2>6</category2>
        <category3>6</category3>
    </spot>
    <spot>
        <no>167</no>
        <name>一草川（気田川）</name>
        <comment>この赤い吊り橋の上で、「愛を叫ぶ」と願いが叶う。叫ぶ時は真ん中で。</comment>
        <adress>浜松市天竜区春野町堀之内553</adress>
        <lat>34.97017</lat>
        <lng>137.898636</lng>
        <category1>0</category1>
        <category2>6</category2>
        <category3>6</category3>
    </spot>
    <spot>
        <no>168</no>
        <name>大天狗面</name>
        <comment>この地域には天狗信仰があり、伝説の春野の天狗は、神の山を守るとされてきたが、近年、真っ赤な顔をした大天狗の前で「縁結び」祈願をすると叶うという噂が。</comment>
        <adress>浜松市天竜区春野町宮川1768</adress>
        <lat>34.989343</lat>
        <lng>137.889936</lng>
        <category1>3</category1>
        <category2>6</category2>
        <category3>6</category3>
    </spot>
    <spot>
        <no>169</no>
        <name>白山神社</name>
        <comment>参拝すると「子宝に恵まれる」という話が地元に伝えられ、子宝、安産の神様として信仰を集めている。</comment>
        <adress>浜松市中区高林1-17-1</adress>
        <lat>34.726115</lat>
        <lng>137.729189</lng>
        <category1>1</category1>
        <category2>6</category2>
        <category3>6</category3>
    </spot>
    <spot>
        <no>170</no>
        <name>舘山寺の縁結び地蔵</name>
        <comment>
            参拝すれば「縁結び」にご利益があるとされる舘山寺。境内に「縁結び地蔵」がいて、参拝したあと願いが叶ったとのうわさが口コミで広がっている。また「縁結びに効く」絵馬やお守りもあり、合わせて授与されていく人も多いそう。「心に鍵」絵馬を奉納し、良縁の願いを忘れないように「心」に鍵をかける。
        </comment>
        <adress>浜松市西区舘山寺町2231</adress>
        <lat>34.768249</lat>
        <lng>137.61306</lng>
        <category1>3</category1>
        <category2>6</category2>
        <category3>6</category3>
    </spot>
    <spot>
        <no>171</no>
        <name>浜名湖SAのハートロック</name>
        <comment>
            東名高速道路上下線が出会う浜名湖サービスエリアをふたりの未来をつなぐスタート地点に、との思いを込めて設置された。「浜名湖ハートロック」。「恋人の聖地」で南京錠にメッセージを書き、ふたりの思いにしっかりと鍵をかけよう。
        </comment>
        <adress>浜松市北区三ケ日町佐久米47-1</adress>
        <lat>34.784052</lat>
        <lng>137.607263</lng>
        <category1>0</category1>
        <category2>6</category2>
        <category3>6</category3>
    </spot>
    <spot>
        <no>172</no>
        <name>はままつフラワーパーク</name>
        <comment>大温室・クリスタルパレス内にある、「サボテンの花の咲いているところ」を「好きな人」と見ることができたら、「恋がうまくいく」という噂がある。</comment>
        <adress>浜松市西区舘山寺町195</adress>
        <lat>34.761831</lat>
        <lng>137.634441</lng>
        <category1>0</category1>
        <category2>6</category2>
        <category3>6</category3>
    </spot>
    <spot>
        <no>173</no>
        <name>岩水寺</name>
        <comment>訪れた人が「子どもを授かり」、また安産にもご利益があると有名なので安産祈願をして「無事出産した」という声が寄せられているお寺。</comment>
        <adress>浜松市浜北区根堅2238</adress>
        <lat>34.845407</lat>
        <lng>137.793292</lng>
        <category1>1</category1>
        <category2>6</category2>
        <category3>6</category3>
    </spot>
    <spot>
        <no>174</no>
        <name>勝坂神楽（八幡神社）</name>
        <comment>「子どもを授けてくれる神様」、「子どもを健やかに育ててくれる神様」として崇められている。</comment>
        <adress>浜松市天竜区春野町豊岡</adress>
        <lat>35.061926</lat>
        <lng>137.912188</lng>
        <category1>1</category1>
        <category2>6</category2>
        <category3>6</category3>
    </spot>
    <spot>
        <no>175</no>
        <name>社宮神社</name>
        <comment>参拝すれば「子宝に恵まれる」と、知る人ぞ知る神社。「杓子を奉納したら、結婚後9年目に女の子が授かった」という話も！</comment>
        <adress>浜松市北区都田町7029</adress>
        <lat>34.823952</lat>
        <lng>137.746575</lng>
        <category1>1</category1>
        <category2>6</category2>
        <category3>6</category3>
    </spot>
    <spot>
        <no>176</no>
        <name>秋葉寺</name>
        <comment>火防の神様として有名だが、「子宝に恵まれる」としても知られていて近隣だけではなく遠方からも多くの若い夫婦が訪れるそう。</comment>
        <adress>浜松市天竜区春野町領家848</adress>
        <lat>34.977066</lat>
        <lng>137.870399</lng>
        <category1>1</category1>
        <category2>6</category2>
        <category3>6</category3>
    </spot>
    <spot>
        <no>177</no>
        <name>五社神社・諏訪神社</name>
        <comment>徳川秀忠の産土神とされたことから「子守り」「子育て」の神様として崇められている。</comment>
        <adress>浜松市中区利町302-5</adress>
        <lat>34.706293</lat>
        <lng>137.725593</lng>
        <category1>1</category1>
        <category2>6</category2>
        <category3>6</category3>
    </spot>
</powerspot>
